{"type":"FeatureCollection","features":[{"type": "Feature", "geometry": {"coordinates": [-123.077346577693, 49.2696673278744], "type": "Point"}, "properties": {"mapid": "TCM001", "url": "https://trafficcams.vancouver.ca/clark4.htm", "name": "Clark Drive and E 1st Av", "geo_local_area": "Strathcona"}},{"type": "Feature", "geometry": {"coordinates": [-123.133742210751, 49.2925940002885], "type": "Point"}, "properties": {"mapid": "TCM002", "url": "https://trafficcams.vancouver.ca/denman3.htm", "name": "Denman St and W Georgia St", "geo_local_area": "Downtown"}},{"type": "Feature", "geometry": {"coordinates": [-123.138554334693, 49.2635968497724], "type": "Point"}, "properties": {"mapid": "TCM006", "url": "https://trafficcams.vancouver.ca/broadwayGranville.htm", "name": "Granville St and W Broadway", "geo_local_area": "Fairview"}},{"type": "Feature", "geometry": {"coordinates": [-123.140525163827, 49.2085840137306], "type": "Point"}, "properties": {"mapid": "TCM008", "url": "https://trafficcams.vancouver.ca/granville70th.htm", "name": "Granville St and W 70th Av", "geo_local_area": "Marpole"}},{"type": "Feature", "geometry": {"coordinates": [-123.115084873166, 49.256907684832], "type": "Point"}, "properties": {"mapid": "TCM009", "url": "https://trafficcams.vancouver.ca/cambie16th.htm", "name": "Cambie St and W 16th Av", "geo_local_area": "Fairview"}},{"type": "Feature", "geometry": {"coordinates": [-123.132359942237, 49.2769754719523], "type": "Point"}, "properties": {"mapid": "TCM012", "url": "https://trafficcams.vancouver.ca/BurrardPacific4.htm", "name": "Burrard St and Pacific St", "geo_local_area": "West End"}},{"type": "Feature", "geometry": {"coordinates": [-123.023578, 49.2811188], "type": "Point"}, "properties": {"mapid": "TCM013", "url": "https://trafficcams.vancouver.ca/hastings.htm", "name": "Boundary Road and E Hastings St", "geo_local_area": "Hastings-Sunrise"}},{"type": "Feature", "geometry": {"coordinates": [-123.129968, 49.324891], "type": "Point"}, "properties": {"mapid": "TCM017", "url": "http://images.drivebc.ca/bchighwaycam/pub/html/www/20.html", "name": "North End camera 2"}},{"type": "Feature", "geometry": {"coordinates": [-123.114727137422, 49.2758069601355], "type": "Point"}, "properties": {"mapid": "TCM018", "url": "https://trafficcams.vancouver.ca/expoSmithe.htm", "name": "Expo Blvd and Smithe St", "geo_local_area": "Downtown"}},{"type": "Feature", "geometry": {"coordinates": [-123.118130911495, 49.2761048691871], "type": "Point"}, "properties": {"mapid": "TCM019", "url": "https://trafficcams.vancouver.ca/cambieNelson.htm", "name": "Cambie St and Nelson St", "geo_local_area": "Downtown"}},{"type": "Feature", "geometry": {"coordinates": [-123.044076554126, 49.2811221877658], "type": "Point"}, "properties": {"mapid": "TCM020", "url": "https://trafficcams.vancouver.ca/renfrewHastings.htm", "name": "Renfrew St and E Hastings St", "geo_local_area": "Hastings-Sunrise"}},{"type": "Feature", "geometry": {"coordinates": [-123.114883421659, 49.2632184560264], "type": "Point"}, "properties": {"mapid": "TCM027", "url": "https://trafficcams.vancouver.ca/cambieBroadway.htm", "name": "Cambie St and W Broadway", "geo_local_area": "Fairview"}},{"type": "Feature", "geometry": {"coordinates": [-123.099648798315, 49.2813356595642], "type": "Point"}, "properties": {"mapid": "TCM034", "url": "https://trafficcams.vancouver.ca/MainHastings.htm", "name": "Main St and E Hastings St", "geo_local_area": "Downtown"}},{"type": "Feature", "geometry": {"coordinates": [-123.110542, 49.2798513], "type": "Point"}, "properties": {"mapid": "TCM036", "url": "https://trafficcams.vancouver.ca/BeattyDunsmuir.htm", "name": "Beatty St and Dunsmuir St", "geo_local_area": "Downtown"}},{"type": "Feature", "geometry": {"coordinates": [-123.11812055027, 49.2824942805362], "type": "Point"}, "properties": {"mapid": "TCM037", "url": "https://trafficcams.vancouver.ca/granvilleGeorgia.htm", "name": "Granville St and W Georgia St", "geo_local_area": "Downtown"}},{"type": "Feature", "geometry": {"coordinates": [-123.112273646781, 49.2787098421077], "type": "Point"}, "properties": {"mapid": "TCM038", "url": "https://trafficcams.vancouver.ca/beattyGeorgia.htm", "name": "Beatty St and W Georgia St", "geo_local_area": "Downtown"}},{"type": "Feature", "geometry": {"coordinates": [-123.123013825971, 49.2792581951786], "type": "Point"}, "properties": {"mapid": "TCM039", "url": "https://trafficcams.vancouver.ca/granvilleNelson.htm", "name": "Granville St and Nelson St", "geo_local_area": "Downtown"}},{"type": "Feature", "geometry": {"coordinates": [-123.077555176815, 49.259622152424], "type": "Point"}, "properties": {"mapid": "TCM041", "url": "https://trafficcams.vancouver.ca/clark12.htm", "name": "Clark Drive and E 12th Av", "geo_local_area": "Mount Pleasant"}},{"type": "Feature", "geometry": {"coordinates": [-123.131337, 49.2763164], "type": "Point"}, "properties": {"mapid": "TCM051", "url": "https://trafficcams.vancouver.ca/hornbyPacific.htm", "name": "Hornby St and Pacific St", "geo_local_area": "Downtown"}},{"type": "Feature", "geometry": {"coordinates": [-123.16831, 49.26837], "type": "Point"}, "properties": {"mapid": "TCM052", "url": "https://trafficcams.vancouver.ca/macdonald4.htm", "name": "Macdonald St and W 4th Av", "geo_local_area": "Kitsilano"}},{"type": "Feature", "geometry": {"coordinates": [-123.056587, 49.281123], "type": "Point"}, "properties": {"mapid": "TCM055", "url": "https://trafficcams.vancouver.ca/nanaimoHastings.htm", "name": "Nanaimo St and E Hastings St", "geo_local_area": "Grandview-Woodland"}},{"type": "Feature", "geometry": {"coordinates": [-123.185885, 49.263478], "type": "Point"}, "properties": {"mapid": "TCM058", "url": "https://trafficcams.vancouver.ca/alma10.htm", "name": "Alma St and W 10th Av", "geo_local_area": "West Point Grey"}},{"type": "Feature", "geometry": {"coordinates": [-123.153114, 49.25154], "type": "Point"}, "properties": {"mapid": "TCM059", "url": "https://trafficcams.vancouver.ca/arbutusWKingEdward.htm", "name": "Arbutus St and W King Edward Av", "geo_local_area": "Arbutus-Ridge"}},{"type": "Feature", "geometry": {"coordinates": [-123.036666, 49.20693], "type": "Point"}, "properties": {"mapid": "TCM066", "url": "https://trafficcams.vancouver.ca/kinrossMarine.htm", "name": "Kinross St and Marine Way", "geo_local_area": "Killarney"}},{"type": "Feature", "geometry": {"coordinates": [-123.042261, 49.208109], "type": "Point"}, "properties": {"mapid": "TCM067", "url": "https://trafficcams.vancouver.ca/kerrMarine.htm", "name": "Kerr St and SE Marine Drive", "geo_local_area": "Killarney"}},{"type": "Feature", "geometry": {"coordinates": [-123.196716, 49.234772], "type": "Point"}, "properties": {"mapid": "TCM069", "url": "https://trafficcams.vancouver.ca/marine41.htm", "name": "SW Marine Drive and W 41st Av", "geo_local_area": "Dunbar-Southlands"}},{"type": "Feature", "geometry": {"coordinates": [-123.171398, 49.227355], "type": "Point"}, "properties": {"mapid": "TCM070", "url": "https://trafficcams.vancouver.ca/marine49.htm", "name": "SW Marine Drive and W 49th Av", "geo_local_area": "Kerrisdale"}},{"type": "Feature", "geometry": {"coordinates": [-123.05403, 49.240012], "type": "Point"}, "properties": {"mapid": "TCM071", "url": "https://trafficcams.vancouver.ca/slocanKingsway.htm", "name": "Slocan St and Kingsway", "geo_local_area": "Renfrew-Collingwood"}},{"type": "Feature", "geometry": {"coordinates": [-123.102278, 49.271224], "type": "Point"}, "properties": {"mapid": "TCM075", "url": "https://trafficcams.vancouver.ca/quebecSwitchmen.htm", "name": "Quebec St and Switchmen St", "geo_local_area": "Mount Pleasant"}},{"type": "Feature", "geometry": {"coordinates": [-123.023648, 49.269455], "type": "Point"}, "properties": {"mapid": "TCM077", "url": "https://trafficcams.vancouver.ca/boundary1.htm", "name": "Boundary Rd and E 1st Av", "geo_local_area": "Hastings-Sunrise"}},{"type": "Feature", "geometry": {"coordinates": [-123.077509, 49.262375], "type": "Point"}, "properties": {"mapid": "TCM078", "url": "https://trafficcams.vancouver.ca/clarkBroadway.htm", "name": "Clark Drive and E Broadway", "geo_local_area": "Mount Pleasant"}},{"type": "Feature", "geometry": {"coordinates": [-123.215212, 49.263925], "type": "Point"}, "properties": {"mapid": "TCM080", "url": "https://trafficcams.vancouver.ca/blanca10.htm", "name": "Blanca St and W 10th Av"}},{"type": "Feature", "geometry": {"coordinates": [-123.02371, 49.254887], "type": "Point"}, "properties": {"mapid": "TCM083", "url": "https://trafficcams.vancouver.ca/boundaryCanadaWay.htm", "name": "Boundary Road and Canada Way", "geo_local_area": "Renfrew-Collingwood"}},{"type": "Feature", "geometry": {"coordinates": [-123.118271, 49.288853], "type": "Point"}, "properties": {"mapid": "TCM085", "url": "https://trafficcams.vancouver.ca/ThurlowCanadaPlace.htm", "name": "Thurlow St and Canada Place", "geo_local_area": "Downtown"}},{"type": "Feature", "geometry": {"coordinates": [-123.136732, 49.275566], "type": "Point"}, "properties": {"mapid": "TCM086", "url": "https://trafficcams.vancouver.ca/BurrardBridge.htm", "name": "Burrard St Bridge", "geo_local_area": "Downtown"}},{"type": "Feature", "geometry": {"coordinates": [-123.153051, 49.260993], "type": "Point"}, "properties": {"mapid": "TCM087", "url": "https://trafficcams.vancouver.ca/arbutus12.htm", "name": "Arbutus St and W 12th Av", "geo_local_area": "Kitsilano"}},{"type": "Feature", "geometry": {"coordinates": [-123.031797, 49.23839], "type": "Point"}, "properties": {"mapid": "TCM092", "url": "https://trafficcams.vancouver.ca/joyceVanness.htm", "name": "Joyce St and Vanness Av", "geo_local_area": "Renfrew-Collingwood"}},{"type": "Feature", "geometry": {"coordinates": [-123.142148, 49.208558], "type": "Point"}, "properties": {"mapid": "TCM097", "url": "https://trafficcams.vancouver.ca/cornishSWMarine.htm", "name": "Cornish St and SW Marine drive", "geo_local_area": "Marpole"}},{"type": "Feature", "geometry": {"coordinates": [-123.122022, 49.278617], "type": "Point"}, "properties": {"mapid": "TCM101", "url": "https://trafficcams.vancouver.ca/seymourNelson.htm", "name": "Seymour St and Nelson St", "geo_local_area": "Downtown"}},{"type": "Feature", "geometry": {"coordinates": [-123.043093, 49.232969], "type": "Point"}, "properties": {"mapid": "TCM106", "url": "https://trafficcams.vancouver.ca/rupert41.htm", "name": "Rupert St and E 41st Av", "geo_local_area": "Renfrew-Collingwood"}},{"type": "Feature", "geometry": {"coordinates": [-123.082603, 49.276833], "type": "Point"}, "properties": {"mapid": "TCM108", "url": "https://trafficcams.vancouver.ca/raymurVenables.htm", "name": "Raymur Av and Venables St", "geo_local_area": "Strathcona"}},{"type": "Feature", "geometry": {"coordinates": [-123.145864, 49.260889], "type": "Point"}, "properties": {"mapid": "TCM110", "url": "https://trafficcams.vancouver.ca/burrard12.htm", "name": "Burrard St and W 12th Av", "geo_local_area": "Kitsilano"}},{"type": "Feature", "geometry": {"coordinates": [-123.155277, 49.234581], "type": "Point"}, "properties": {"mapid": "TCM122", "url": "https://trafficcams.vancouver.ca/boulevards41.htm", "name": "Boulevards and W 41st Av", "geo_local_area": "Arbutus-Ridge"}},{"type": "Feature", "geometry": {"coordinates": [-123.138664, 49.260772], "type": "Point"}, "properties": {"mapid": "TCM124", "url": "https://trafficcams.vancouver.ca/granville12.htm", "name": "Granville St and W 12th Av", "geo_local_area": "Fairview"}},{"type": "Feature", "geometry": {"coordinates": [-123.126694, 49.26058], "type": "Point"}, "properties": {"mapid": "TCM125", "url": "https://trafficcams.vancouver.ca/oak12.htm", "name": "Oak St and W 12th Av", "geo_local_area": "Fairview"}},{"type": "Feature", "geometry": {"coordinates": [-123.056591, 49.269508], "type": "Point"}, "properties": {"mapid": "TCM126", "url": "https://trafficcams.vancouver.ca/nanaimo1.htm", "name": "Nanaimo St and E 1st Av", "geo_local_area": "Grandview-Woodland"}},{"type": "Feature", "geometry": {"coordinates": [-123.056532, 49.284795], "type": "Point"}, "properties": {"mapid": "TCM127", "url": "https://trafficcams.vancouver.ca/nanaimoDundas.htm", "name": "Nanaimo St and Dundas St", "geo_local_area": "Grandview-Woodland"}},{"type": "Feature", "geometry": {"coordinates": [-123.110954, 49.284679], "type": "Point"}, "properties": {"mapid": "TCM132", "url": "https://trafficcams.vancouver.ca/richardsCordovaWater.htm", "name": "Richards St and W Cordova St / Water St", "geo_local_area": "Downtown"}},{"type": "Feature", "geometry": {"coordinates": [-123.11445, 49.282358], "type": "Point"}, "properties": {"mapid": "TCM137", "url": "https://trafficcams.vancouver.ca/richardsDunsmuir.htm", "name": "Richards St and Dunsmuir St", "geo_local_area": "Downtown"}},{"type": "Feature", "geometry": {"coordinates": [-123.033725, 49.267549], "type": "Point"}, "properties": {"mapid": "TCM142", "url": "https://trafficcams.vancouver.ca/rupert03rd.htm", "name": "Rupert St and E 3rd Av", "geo_local_area": "Hastings-Sunrise"}},{"type": "Feature", "geometry": {"coordinates": [-123.100776, 49.262703], "type": "Point"}, "properties": {"mapid": "TCM144", "url": "https://trafficcams.vancouver.ca/mainBroadway.htm", "name": "Main St and E Broadway", "geo_local_area": "Mount Pleasant"}},{"type": "Feature", "geometry": {"coordinates": [-123.2091, 49.26383], "type": "Point"}, "properties": {"mapid": "TCM145", "url": "https://trafficcams.vancouver.ca/sasamat10.htm", "name": "Sasamat St and W 10th Av", "geo_local_area": "West Point Grey"}},{"type": "Feature", "geometry": {"coordinates": [-123.056711, 49.257626], "type": "Point"}, "properties": {"mapid": "TCM153", "url": "https://trafficcams.vancouver.ca/nanaimoGrandview.htm", "name": "Nanaimo St and Grandview Hwy South", "geo_local_area": "Kensington-Cedar Cottage"}},{"type": "Feature", "geometry": {"coordinates": [-123.125831, 49.274826], "type": "Point"}, "properties": {"mapid": "TCM154", "url": "https://trafficcams.vancouver.ca/richardsDrake.htm", "name": "Richards St and Drake St", "geo_local_area": "Downtown"}},{"type": "Feature", "geometry": {"coordinates": [-123.077292, 49.225295], "type": "Point"}, "properties": {"mapid": "TCM169", "url": "https://trafficcams.vancouver.ca/knight49.htm", "name": "Knight St and E 49th Av", "geo_local_area": "Sunset"}},{"type": "Feature", "geometry": {"coordinates": [-123.121066, 49.277993], "type": "Point"}, "properties": {"mapid": "TCM172", "url": "https://trafficcams.vancouver.ca/richardsNelson.htm", "name": "Richards St and Nelson St", "geo_local_area": "Downtown"}},{"type": "Feature", "geometry": {"coordinates": [-123.117882, 49.2801], "type": "Point"}, "properties": {"mapid": "TCM175", "url": "https://trafficcams.vancouver.ca/richardsRobson.htm", "name": "Richards St and Robson St", "geo_local_area": "Downtown"}},{"type": "Feature", "geometry": {"coordinates": [-123.120444, 49.279674], "type": "Point"}, "properties": {"mapid": "TCM177", "url": "https://trafficcams.vancouver.ca/seymourSmithe.htm", "name": "Seymour St and Smithe St", "geo_local_area": "Downtown"}},{"type": "Feature", "geometry": {"coordinates": [-123.152065, 49.234525], "type": "Point"}, "properties": {"mapid": "TCM181", "url": "https://trafficcams.vancouver.ca/maple41.htm", "name": "Maple St and 41st Av", "geo_local_area": "Shaughnessy"}},{"type": "Feature", "geometry": {"coordinates": [-123.124419, 49.282246], "type": "Point"}, "properties": {"mapid": "TCM183", "url": "https://trafficcams.vancouver.ca/burrardSmithe.htm", "name": "Burrard St and Smithe St", "geo_local_area": "West End"}},{"type": "Feature", "geometry": {"coordinates": [-123.106588, 49.26928], "type": "Point"}, "properties": {"mapid": "TCM187", "url": "https://trafficcams.vancouver.ca/manitoba2.htm", "name": "Manitoba St and W 2nd Av", "geo_local_area": "Mount Pleasant"}},{"type": "Feature", "geometry": {"coordinates": [-123.117553, 49.262299], "type": "Point"}, "properties": {"mapid": "TCM188", "url": "https://trafficcams.vancouver.ca/ash10.htm", "name": "Ash St and 10th Av", "geo_local_area": "Fairview"}},{"type": "Feature", "geometry": {"coordinates": [-123.130520302544, 49.290510806346], "type": "Point"}, "properties": {"mapid": "TCM003", "url": "https://trafficcams.vancouver.ca/georgia3.htm", "name": "Cardero St and W Pender St and W Georgia", "geo_local_area": "Downtown"}},{"type": "Feature", "geometry": {"coordinates": [-123.033764228688, 49.2581519344414], "type": "Point"}, "properties": {"mapid": "TCM004", "url": "https://trafficcams.vancouver.ca/grandview4.htm", "name": "Rupert St and Grandview Hwy", "geo_local_area": "Renfrew-Collingwood"}},{"type": "Feature", "geometry": {"coordinates": [-123.114886176233, 49.2667756269949], "type": "Point"}, "properties": {"mapid": "TCM005", "url": "https://trafficcams.vancouver.ca/cambiebridge.htm", "name": "Cambie Bridge", "geo_local_area": "Fairview"}},{"type": "Feature", "geometry": {"coordinates": [-123.146200846216, 49.2728254984234], "type": "Point"}, "properties": {"mapid": "TCM011", "url": "https://trafficcams.vancouver.ca/BurrardCornwall4.htm", "name": "Burrard St and Cornwall Av", "geo_local_area": "Kitsilano"}},{"type": "Feature", "geometry": {"coordinates": [-123.030835801938, 49.2811264797669], "type": "Point"}, "properties": {"mapid": "TCM021", "url": "https://trafficcams.vancouver.ca/cassiarHastings.htm", "name": "Cassiar Connector and E Hastings St", "geo_local_area": "Hastings-Sunrise"}},{"type": "Feature", "geometry": {"coordinates": [-123.077030889534, 49.2327151572131], "type": "Point"}, "properties": {"mapid": "TCM022", "url": "https://trafficcams.vancouver.ca/knight.htm", "name": "Knight St and E 41st Av", "geo_local_area": "Kensington-Cedar Cottage"}},{"type": "Feature", "geometry": {"coordinates": [-123.07702523194, 49.2181272253316], "type": "Point"}, "properties": {"mapid": "TCM023", "url": "https://trafficcams.vancouver.ca/knight57.htm", "name": "Knight St and E 57th Av", "geo_local_area": "Sunset"}},{"type": "Feature", "geometry": {"coordinates": [-123.101486354168, 49.2405023736559], "type": "Point"}, "properties": {"mapid": "TCM029", "url": "https://trafficcams.vancouver.ca/main33.htm", "name": "Main St and E 33rd Av", "geo_local_area": "Riley Park"}},{"type": "Feature", "geometry": {"coordinates": [-123.115479083554, 49.2881431972814], "type": "Point"}, "properties": {"mapid": "TCM031", "url": "https://trafficcams.vancouver.ca/BurrardCanadaPlace.htm", "name": "Burrard St and Canada Place", "geo_local_area": "Downtown"}},{"type": "Feature", "geometry": {"coordinates": [-123.100696908039, 49.2691679881689], "type": "Point"}, "properties": {"mapid": "TCM033", "url": "https://trafficcams.vancouver.ca/Main2.htm", "name": "Main St and E 2nd Av", "geo_local_area": "Mount Pleasant"}},{"type": "Feature", "geometry": {"coordinates": [-123.069621664266, 49.2695996340758], "type": "Point"}, "properties": {"mapid": "TCM035", "url": "https://trafficcams.vancouver.ca/Commercial01.htm", "name": "Commercial Drive and E 1st Av", "geo_local_area": "Grandview-Woodland"}},{"type": "Feature", "geometry": {"coordinates": [-123.069762688147, 49.2623194551024], "type": "Point"}, "properties": {"mapid": "TCM040", "url": "https://trafficcams.vancouver.ca/commercialBroadway.htm", "name": "Commercial Drive and E Broadway", "geo_local_area": "Grandview-Woodland"}},{"type": "Feature", "geometry": {"coordinates": [-123.120082749606, 49.2837645081745], "type": "Point"}, "properties": {"mapid": "TCM043", "url": "https://trafficcams.vancouver.ca/hornbyGeorgia.htm", "name": "Hornby St and W Georgia St", "geo_local_area": "Downtown"}},{"type": "Feature", "geometry": {"coordinates": [-123.07711, 49.28309], "type": "Point"}, "properties": {"mapid": "TCM044", "url": "https://trafficcams.vancouver.ca/ClarkPowell.htm", "name": "Clark Drive and Powell St", "geo_local_area": "Grandview-Woodland"}},{"type": "Feature", "geometry": {"coordinates": [-123.07711, 49.28131], "type": "Point"}, "properties": {"mapid": "TCM045", "url": "https://trafficcams.vancouver.ca/ClarkHastings.htm", "name": "Clark Drive and E Hastings St", "geo_local_area": "Grandview-Woodland"}},{"type": "Feature", "geometry": {"coordinates": [-123.119088, 49.2831269], "type": "Point"}, "properties": {"mapid": "TCM049", "url": "https://trafficcams.vancouver.ca/howeGeorgia.htm", "name": "Howe St and W Georgia St", "geo_local_area": "Downtown"}},{"type": "Feature", "geometry": {"coordinates": [-123.119829, 49.2813697], "type": "Point"}, "properties": {"mapid": "TCM050", "url": "https://trafficcams.vancouver.ca/granvilleRobson.htm", "name": "Granville St and Robson St", "geo_local_area": "Downtown"}},{"type": "Feature", "geometry": {"coordinates": [-123.035859, 49.2341556], "type": "Point"}, "properties": {"mapid": "TCM053", "url": "https://trafficcams.vancouver.ca/joyceKingsway.htm", "name": "Joyce St and Kingsway", "geo_local_area": "Renfrew-Collingwood"}},{"type": "Feature", "geometry": {"coordinates": [-123.044285, 49.261973], "type": "Point"}, "properties": {"mapid": "TCM054", "url": "https://trafficcams.vancouver.ca/renfrewBroadway.htm", "name": "Renfrew St and E Broadway", "geo_local_area": "Hastings-Sunrise"}},{"type": "Feature", "geometry": {"coordinates": [-123.081247, 49.282787], "type": "Point"}, "properties": {"mapid": "TCM057", "url": "https://trafficcams.vancouver.ca/glenPowell.htm", "name": "Glen Drive and Powell St", "geo_local_area": "Strathcona"}},{"type": "Feature", "geometry": {"coordinates": [-123.07614, 49.248518], "type": "Point"}, "properties": {"mapid": "TCM062", "url": "https://trafficcams.vancouver.ca/knightKingEdward.htm", "name": "Knight St and King Edward Av", "geo_local_area": "Kensington-Cedar Cottage"}},{"type": "Feature", "geometry": {"coordinates": [-123.077205, 49.211117], "type": "Point"}, "properties": {"mapid": "TCM063", "url": "https://trafficcams.vancouver.ca/knightMarineBridge.htm", "name": "Knight St and SE Marine Drive", "geo_local_area": "Sunset"}},{"type": "Feature", "geometry": {"coordinates": [-123.145657, 49.268027], "type": "Point"}, "properties": {"mapid": "TCM065", "url": "https://trafficcams.vancouver.ca/burrard4.htm", "name": "Burrard St and W 4th Av", "geo_local_area": "Kitsilano"}},{"type": "Feature", "geometry": {"coordinates": [-123.03084, 49.206881], "type": "Point"}, "properties": {"mapid": "TCM074", "url": "https://trafficcams.vancouver.ca/RiverDistrictMarine.htm", "name": "River District Crossing and Marine Way", "geo_local_area": "Killarney"}},{"type": "Feature", "geometry": {"coordinates": [-123.118386, 49.241057], "type": "Point"}, "properties": {"mapid": "TCM079", "url": "https://trafficcams.vancouver.ca/cambie33.htm", "name": "Cambie St and W 33rd Av", "geo_local_area": "Riley Park"}},{"type": "Feature", "geometry": {"coordinates": [-123.153058, 49.257275], "type": "Point"}, "properties": {"mapid": "TCM088", "url": "https://trafficcams.vancouver.ca/arbutus16.htm", "name": "Arbutus St and W 16th Av", "geo_local_area": "Kitsilano"}},{"type": "Feature", "geometry": {"coordinates": [-123.152958, 49.263817], "type": "Point"}, "properties": {"mapid": "TCM089", "url": "https://trafficcams.vancouver.ca/arbutusBroadway.htm", "name": "Arbutus St and W Broadway", "geo_local_area": "Kitsilano"}},{"type": "Feature", "geometry": {"coordinates": [-123.114864, 49.211016], "type": "Point"}, "properties": {"mapid": "TCM095", "url": "https://trafficcams.vancouver.ca/yukonSWMarine.htm", "name": "Yukon St and SW Marine Drive", "geo_local_area": "Marpole"}},{"type": "Feature", "geometry": {"coordinates": [-123.130775, 49.278025], "type": "Point"}, "properties": {"mapid": "TCM096", "url": "https://trafficcams.vancouver.ca/burrardDrake.htm", "name": "Burrard St and Drake St", "geo_local_area": "West End"}},{"type": "Feature", "geometry": {"coordinates": [-123.074029, 49.283234], "type": "Point"}, "properties": {"mapid": "TCM098", "url": "https://trafficcams.vancouver.ca/mcleanPowell.htm", "name": "McLean Drive and Powell St", "geo_local_area": "Grandview-Woodland"}},{"type": "Feature", "geometry": {"coordinates": [-123.14447, 49.208597], "type": "Point"}, "properties": {"mapid": "TCM100", "url": "https://trafficcams.vancouver.ca/arbutusGreenwaySWMarine.htm", "name": "Arbutus Greenway and SW Marine Drive", "geo_local_area": "Marpole"}},{"type": "Feature", "geometry": {"coordinates": [-123.102702, 49.269206], "type": "Point"}, "properties": {"mapid": "TCM103", "url": "https://trafficcams.vancouver.ca/quebec2.htm", "name": "Quebec St and W 2nd Av", "geo_local_area": "Mount Pleasant"}},{"type": "Feature", "geometry": {"coordinates": [-123.116051, 49.237262], "type": "Point"}, "properties": {"mapid": "TCM104", "url": "https://trafficcams.vancouver.ca/cambie37.htm", "name": "Cambie St and W 37th Av", "geo_local_area": "South Cambie"}},{"type": "Feature", "geometry": {"coordinates": [-123.060535, 49.242983], "type": "Point"}, "properties": {"mapid": "TCM105", "url": "https://trafficcams.vancouver.ca/gladstoneKingsway.htm", "name": "Kingsway Midblock East of Gladstone St", "geo_local_area": "Kensington-Cedar Cottage"}},{"type": "Feature", "geometry": {"coordinates": [-123.098639, 49.261969], "type": "Point"}, "properties": {"mapid": "TCM107", "url": "https://trafficcams.vancouver.ca/kingsway10.htm", "name": "Kingsway and E 10th Av", "geo_local_area": "Mount Pleasant"}},{"type": "Feature", "geometry": {"coordinates": [-123.041291, 49.220181], "type": "Point"}, "properties": {"mapid": "TCM113", "url": "https://trafficcams.vancouver.ca/kerr54.htm", "name": "Kerr St and E 54th Av", "geo_local_area": "Killarney"}},{"type": "Feature", "geometry": {"coordinates": [-123.168408, 49.257668], "type": "Point"}, "properties": {"mapid": "TCM115", "url": "https://trafficcams.vancouver.ca/macdonald16.htm", "name": "Macdonald St and W 16th Av", "geo_local_area": "Kitsilano"}},{"type": "Feature", "geometry": {"coordinates": [-123.168202, 49.26408], "type": "Point"}, "properties": {"mapid": "TCM117", "url": "https://trafficcams.vancouver.ca/macdonaldBroadway.htm", "name": "Macdonald St and W Broadway", "geo_local_area": "Kitsilano"}},{"type": "Feature", "geometry": {"coordinates": [-123.115918, 49.266135], "type": "Point"}, "properties": {"mapid": "TCM119", "url": "https://trafficcams.vancouver.ca/cambie2West.htm", "name": "Cambie St and W 2nd Av - West intersecti", "geo_local_area": "Fairview"}},{"type": "Feature", "geometry": {"coordinates": [-123.168214, 49.262338], "type": "Point"}, "properties": {"mapid": "TCM129", "url": "https://trafficcams.vancouver.ca/macdonaldKitsDiv.htm", "name": "Macdonald St and Kitsilano Diversion", "geo_local_area": "Kitsilano"}},{"type": "Feature", "geometry": {"coordinates": [-123.126589, 49.26341], "type": "Point"}, "properties": {"mapid": "TCM130", "url": "https://trafficcams.vancouver.ca/oakWBroadway.htm", "name": "Oak St and W Broadway", "geo_local_area": "Fairview"}},{"type": "Feature", "geometry": {"coordinates": [-123.065537, 49.232752], "type": "Point"}, "properties": {"mapid": "TCM133", "url": "https://trafficcams.vancouver.ca/victoria41.htm", "name": "Victoria Drive and E 41st Av", "geo_local_area": "Kensington-Cedar Cottage"}},{"type": "Feature", "geometry": {"coordinates": [-123.112886, 49.283391], "type": "Point"}, "properties": {"mapid": "TCM136", "url": "https://trafficcams.vancouver.ca/richardsPender.htm", "name": "Richards St and W Pender St", "geo_local_area": "Downtown"}},{"type": "Feature", "geometry": {"coordinates": [-123.044084, 49.277455], "type": "Point"}, "properties": {"mapid": "TCM139", "url": "https://trafficcams.vancouver.ca/renfrewAdanac.htm", "name": "Renfrew St and Adanac St", "geo_local_area": "Hastings-Sunrise"}},{"type": "Feature", "geometry": {"coordinates": [-123.066299, 49.252975], "type": "Point"}, "properties": {"mapid": "TCM141", "url": "https://trafficcams.vancouver.ca/victoriaVictoriaCommercial.htm", "name": "Victoria Drive and Victoria Diversion", "geo_local_area": "Kensington-Cedar Cottage"}},{"type": "Feature", "geometry": {"coordinates": [-123.148748, 49.209601], "type": "Point"}, "properties": {"mapid": "TCM146", "url": "https://trafficcams.vancouver.ca/angusMarine.htm", "name": "Angus Drive and SW Marine Drive", "geo_local_area": "Kerrisdale"}},{"type": "Feature", "geometry": {"coordinates": [-123.065737, 49.225182], "type": "Point"}, "properties": {"mapid": "TCM147", "url": "https://trafficcams.vancouver.ca/victoria49.htm", "name": "Victoria Drive and E 49th Av", "geo_local_area": "Victoria-Fraserview"}},{"type": "Feature", "geometry": {"coordinates": [-123.137976, 49.269356], "type": "Point"}, "properties": {"mapid": "TCM149", "url": "https://trafficcams.vancouver.ca/andersonLameysMill.htm", "name": "Anderson St and Lamey's Mill Road", "geo_local_area": "Fairview"}},{"type": "Feature", "geometry": {"coordinates": [-123.121422, 49.280312], "type": "Point"}, "properties": {"mapid": "TCM151", "url": "https://trafficcams.vancouver.ca/granvilleSmithe.htm", "name": "Granville St and Smithe St", "geo_local_area": "Downtown"}},{"type": "Feature", "geometry": {"coordinates": [-123.065947, 49.259531], "type": "Point"}, "properties": {"mapid": "TCM155", "url": "https://trafficcams.vancouver.ca/victoria12.htm", "name": "Victoria Drive and 12th Av", "geo_local_area": "Kensington-Cedar Cottage"}},{"type": "Feature", "geometry": {"coordinates": [-123.082571, 49.232788], "type": "Point"}, "properties": {"mapid": "TCM170", "url": "https://trafficcams.vancouver.ca/ross41.htm", "name": "Ross St and E 41 Av", "geo_local_area": "Kensington-Cedar Cottage"}},{"type": "Feature", "geometry": {"coordinates": [-123.124252, 49.275885], "type": "Point"}, "properties": {"mapid": "TCM173", "url": "https://trafficcams.vancouver.ca/richardsDavie.htm", "name": "Richards St and Davie St", "geo_local_area": "Downtown"}},{"type": "Feature", "geometry": {"coordinates": [-123.118852, 49.280728], "type": "Point"}, "properties": {"mapid": "TCM176", "url": "https://trafficcams.vancouver.ca/seymourRobson.htm", "name": "Seymour St and Robson St", "geo_local_area": "Downtown"}},{"type": "Feature", "geometry": {"coordinates": [-123.116174, 49.28123], "type": "Point"}, "properties": {"mapid": "TCM178", "url": "https://trafficcams.vancouver.ca/richardsGeorgia.htm", "name": "Richards St and W Georgia St", "geo_local_area": "Downtown"}},{"type": "Feature", "geometry": {"coordinates": [-123.141824, 49.287258], "type": "Point"}, "properties": {"mapid": "TCM182", "url": "https://trafficcams.vancouver.ca/denmanDavie.htm", "name": "Denman St and Davie St", "geo_local_area": "West End"}},{"type": "Feature", "geometry": {"coordinates": [-123.123398, 49.281586], "type": "Point"}, "properties": {"mapid": "TCM184", "url": "https://trafficcams.vancouver.ca/hornbySmithe.htm", "name": "Hornby St and Smithe St", "geo_local_area": "Downtown"}},{"type": "Feature", "geometry": {"coordinates": [-123.129791, 49.277384], "type": "Point"}, "properties": {"mapid": "TCM185", "url": "https://trafficcams.vancouver.ca/hornbyDrake.htm", "name": "Hornby St and Drake St", "geo_local_area": "Downtown"}},{"type": "Feature", "geometry": {"coordinates": [-123.128331, 49.226558], "type": "Point"}, "properties": {"mapid": "TCM189", "url": "https://trafficcams.vancouver.ca/oak49.htm", "name": "Oak St and W 49th Av", "geo_local_area": "Oakridge"}},{"type": "Feature", "geometry": {"coordinates": [-123.17306, 49.234751], "type": "Point"}, "properties": {"mapid": "TCM191", "url": "https://trafficcams.vancouver.ca/carnarvon41.htm", "name": "Carnarvon St and W 41st Av", "geo_local_area": "Dunbar-Southlands"}},{"type": "Feature", "geometry": {"coordinates": [-123.114967985868, 49.2603889490707], "type": "Point"}, "properties": {"mapid": "TCM007", "url": "https://trafficcams.vancouver.ca/cambie12.htm", "name": "Cambie St and W 12th Av", "geo_local_area": "Fairview"}},{"type": "Feature", "geometry": {"coordinates": [-123.130252725283, 49.2084701202487], "type": "Point"}, "properties": {"mapid": "TCM010", "url": "https://trafficcams.vancouver.ca/oak4.htm", "name": "Oak St and W 70th Av", "geo_local_area": "Marpole"}},{"type": "Feature", "geometry": {"coordinates": [-123.136787449782, 49.2942590380806], "type": "Point"}, "properties": {"mapid": "TCM014", "url": "http://images.drivebc.ca/bchighwaycam/pub/html/www/19.html", "name": "Chilco St and W Georgia St", "geo_local_area": "West End"}},{"type": "Feature", "geometry": {"coordinates": [-123.136736007805, 49.2972589838826], "type": "Point"}, "properties": {"mapid": "TCM015", "url": "http://images.drivebc.ca/bchighwaycam/pub/html/www/17.html", "name": "Stanley Park Causeway"}},{"type": "Feature", "geometry": {"coordinates": [-123.130653, 49.324053], "type": "Point"}, "properties": {"mapid": "TCM016", "url": "http://images.drivebc.ca/bchighwaycam/pub/html/www/18.html", "name": "North End camera 1"}},{"type": "Feature", "geometry": {"coordinates": [-123.116492357278, 49.2261139995231], "type": "Point"}, "properties": {"mapid": "TCM024", "url": "https://trafficcams.vancouver.ca/cambie49.htm", "name": "Cambie St and W 49th Av", "geo_local_area": "Oakridge"}},{"type": "Feature", "geometry": {"coordinates": [-123.116192190431, 49.2335434721856], "type": "Point"}, "properties": {"mapid": "TCM025", "url": "https://trafficcams.vancouver.ca/cambie41.htm", "name": "Cambie St and W 41st Av", "geo_local_area": "South Cambie"}},{"type": "Feature", "geometry": {"coordinates": [-123.115406053889, 49.248990875309], "type": "Point"}, "properties": {"mapid": "TCM026", "url": "https://trafficcams.vancouver.ca/cambie25.htm", "name": "Cambie St and W King Edward Av", "geo_local_area": "South Cambie"}},{"type": "Feature", "geometry": {"coordinates": [-123.100028035364, 49.2727762979223], "type": "Point"}, "properties": {"mapid": "TCM028", "url": "https://trafficcams.vancouver.ca/mainTerminal.htm", "name": "Main St and Terminal Av", "geo_local_area": "Downtown"}},{"type": "Feature", "geometry": {"coordinates": [-123.116411709855, 49.2836239860524], "type": "Point"}, "properties": {"mapid": "TCM030", "url": "https://trafficcams.vancouver.ca/GranvilleDunsmuir.htm", "name": "Granville St and Dunsmuir St", "geo_local_area": "Downtown"}},{"type": "Feature", "geometry": {"coordinates": [-123.117110735151, 49.2101449448247], "type": "Point"}, "properties": {"mapid": "TCM032", "url": "https://trafficcams.vancouver.ca/CambieMarine.htm", "name": "Cambie St and SW Marine Drive", "geo_local_area": "Marpole"}},{"type": "Feature", "geometry": {"coordinates": [-123.10089513196, 49.2644481387721], "type": "Point"}, "properties": {"mapid": "TCM042", "url": "https://trafficcams.vancouver.ca/mainKingsway7.htm", "name": "Main St and Kingsway", "geo_local_area": "Mount Pleasant"}},{"type": "Feature", "geometry": {"coordinates": [-123.02361, 49.25822], "type": "Point"}, "properties": {"mapid": "TCM046", "url": "https://trafficcams.vancouver.ca/BoundaryGrandviewHwy.htm", "name": "Boundary Road and Grandview Hwy", "geo_local_area": "Renfrew-Collingwood"}},{"type": "Feature", "geometry": {"coordinates": [-123.04881, 49.23758], "type": "Point"}, "properties": {"mapid": "TCM047", "url": "https://trafficcams.vancouver.ca/EarlesKingsway.htm", "name": "Earles St and Kingsway", "geo_local_area": "Renfrew-Collingwood"}},{"type": "Feature", "geometry": {"coordinates": [-123.121791, 49.2826429], "type": "Point"}, "properties": {"mapid": "TCM048", "url": "https://trafficcams.vancouver.ca/HornbyRobson.htm", "name": "Hornby St and Robson St", "geo_local_area": "Downtown"}},{"type": "Feature", "geometry": {"coordinates": [-123.056641, 49.248805], "type": "Point"}, "properties": {"mapid": "TCM056", "url": "https://trafficcams.vancouver.ca/nanaimo24.htm", "name": "Nanaimo St and E 24th Av", "geo_local_area": "Kensington-Cedar Cottage"}},{"type": "Feature", "geometry": {"coordinates": [-123.133382, 49.281777], "type": "Point"}, "properties": {"mapid": "TCM060", "url": "https://trafficcams.vancouver.ca/buteDavie.htm", "name": "Bute St and Davie St", "geo_local_area": "West End"}},{"type": "Feature", "geometry": {"coordinates": [-123.076038, 49.250101], "type": "Point"}, "properties": {"mapid": "TCM061", "url": "https://trafficcams.vancouver.ca/knightKingsway.htm", "name": "Knight St and Kingsway", "geo_local_area": "Kensington-Cedar Cottage"}},{"type": "Feature", "geometry": {"coordinates": [-123.134406, 49.278304], "type": "Point"}, "properties": {"mapid": "TCM064", "url": "https://trafficcams.vancouver.ca/thurlowPacific.htm", "name": "Thurlow St and Pacific St", "geo_local_area": "West End"}},{"type": "Feature", "geometry": {"coordinates": [-123.038991, 49.207814], "type": "Point"}, "properties": {"mapid": "TCM068", "url": "https://trafficcams.vancouver.ca/marineMarineWay.htm", "name": "SE Marine Drive and Marine Way", "geo_local_area": "Killarney"}},{"type": "Feature", "geometry": {"coordinates": [-123.027149, 49.2064], "type": "Point"}, "properties": {"mapid": "TCM072", "url": "https://trafficcams.vancouver.ca/SawmillEastMarine.htm", "name": "Sawmill East Crescent and Marine Way", "geo_local_area": "Killarney"}},{"type": "Feature", "geometry": {"coordinates": [-123.033566, 49.207032], "type": "Point"}, "properties": {"mapid": "TCM073", "url": "https://trafficcams.vancouver.ca/SawmillWestMarine.htm", "name": "Sawmill West Crescent and Marine Way", "geo_local_area": "Killarney"}},{"type": "Feature", "geometry": {"coordinates": [-123.11558, 49.276527], "type": "Point"}, "properties": {"mapid": "TCM076", "url": "https://trafficcams.vancouver.ca/beattySmithe.htm", "name": "Beatty St and Smithe St", "geo_local_area": "Downtown"}},{"type": "Feature", "geometry": {"coordinates": [-123.044345, 49.250539], "type": "Point"}, "properties": {"mapid": "TCM081", "url": "https://trafficcams.vancouver.ca/renfrew22.htm", "name": "Renfrew St and E 22nd Av", "geo_local_area": "Renfrew-Collingwood"}},{"type": "Feature", "geometry": {"coordinates": [-123.127873, 49.241388], "type": "Point"}, "properties": {"mapid": "TCM082", "url": "https://trafficcams.vancouver.ca/oak33.htm", "name": "Oak St and W 33rd Av", "geo_local_area": "Shaughnessy"}},{"type": "Feature", "geometry": {"coordinates": [-123.023649, 49.23228], "type": "Point"}, "properties": {"mapid": "TCM084", "url": "https://trafficcams.vancouver.ca/boundaryKingsway.htm", "name": "Boundary Road and Kingsway", "geo_local_area": "Renfrew-Collingwood"}},{"type": "Feature", "geometry": {"coordinates": [-123.1546702, 49.2610022], "type": "Point"}, "properties": {"mapid": "TCM090", "url": "https://trafficcams.vancouver.ca/greenway12.htm", "name": "Arbutus Greenway and W 12th Av", "geo_local_area": "Kitsilano"}},{"type": "Feature", "geometry": {"coordinates": [-123.023703, 49.234379], "type": "Point"}, "properties": {"mapid": "TCM093", "url": "https://trafficcams.vancouver.ca/boundaryVanness.htm", "name": "Boundary Rd and Vanness Av", "geo_local_area": "Renfrew-Collingwood"}},{"type": "Feature", "geometry": {"coordinates": [-123.126628, 49.26244], "type": "Point"}, "properties": {"mapid": "TCM094", "url": "https://trafficcams.vancouver.ca/oakW10.htm", "name": "Oak St and W 10th Av", "geo_local_area": "Fairview"}},{"type": "Feature", "geometry": {"coordinates": [-123.090919, 49.266785], "type": "Point"}, "properties": {"mapid": "TCM099", "url": "https://trafficcams.vancouver.ca/carolinaGreatNorthern.htm", "name": "Carolina St and Great Northern Way", "geo_local_area": "Strathcona"}},{"type": "Feature", "geometry": {"coordinates": [-123.097767, 49.261081], "type": "Point"}, "properties": {"mapid": "TCM102", "url": "https://trafficcams.vancouver.ca/kingsway11.htm", "name": "Kingsway and E 11th Av", "geo_local_area": "Mount Pleasant"}},{"type": "Feature", "geometry": {"coordinates": [-123.13039, 49.275674], "type": "Point"}, "properties": {"mapid": "TCM109", "url": "https://trafficcams.vancouver.ca/howePacific.htm", "name": "Howe St and Pacific St", "geo_local_area": "Downtown"}},{"type": "Feature", "geometry": {"coordinates": [-123.033805, 49.250601], "type": "Point"}, "properties": {"mapid": "TCM111", "url": "https://trafficcams.vancouver.ca/rupertE22.htm", "name": "Rupert St and E 22nd Av", "geo_local_area": "Renfrew-Collingwood"}},{"type": "Feature", "geometry": {"coordinates": [-123.138808, 49.257058], "type": "Point"}, "properties": {"mapid": "TCM112", "url": "https://trafficcams.vancouver.ca/granville16.htm", "name": "Granville St and W 16th Av", "geo_local_area": "Fairview"}},{"type": "Feature", "geometry": {"coordinates": [-123.043122, 49.229296], "type": "Point"}, "properties": {"mapid": "TCM114", "url": "https://trafficcams.vancouver.ca/rupert45.htm", "name": "Rupert St and E 45th Av", "geo_local_area": "Killarney"}},{"type": "Feature", "geometry": {"coordinates": [-123.168395, 49.264945], "type": "Point"}, "properties": {"mapid": "TCM116", "url": "https://trafficcams.vancouver.ca/macdonald8.htm", "name": "Macdonald St and W 8th Av", "geo_local_area": "Kitsilano"}},{"type": "Feature", "geometry": {"coordinates": [-123.031839, 49.283737], "type": "Point"}, "properties": {"mapid": "TCM118", "url": "https://trafficcams.vancouver.ca/collectorsBridgeway.htm", "name": "Collectors and Bridgeway St", "geo_local_area": "Hastings-Sunrise"}},{"type": "Feature", "geometry": {"coordinates": [-123.114449, 49.266837], "type": "Point"}, "properties": {"mapid": "TCM120", "url": "https://trafficcams.vancouver.ca/cambie2East.htm", "name": "Cambie St and W 2nd Av - East intersecti", "geo_local_area": "Mount Pleasant"}},{"type": "Feature", "geometry": {"coordinates": [-123.023606, 49.222001], "type": "Point"}, "properties": {"mapid": "TCM121", "url": "https://trafficcams.vancouver.ca/boundary49.htm", "name": "Boundry Road and E 49th Av", "geo_local_area": "Killarney"}},{"type": "Feature", "geometry": {"coordinates": [-123.153224, 49.248462], "type": "Point"}, "properties": {"mapid": "TCM123", "url": "https://trafficcams.vancouver.ca/arbutusLahb.htm", "name": "Arbutus St and Lahb Av", "geo_local_area": "Arbutus-Ridge"}},{"type": "Feature", "geometry": {"coordinates": [-123.023669, 49.265567], "type": "Point"}, "properties": {"mapid": "TCM128", "url": "https://trafficcams.vancouver.ca/boundaryLougheed.htm", "name": "Boundary Road and Lougheed Hwy", "geo_local_area": "Hastings-Sunrise"}},{"type": "Feature", "geometry": {"coordinates": [-123.111904, 49.28404], "type": "Point"}, "properties": {"mapid": "TCM131", "url": "https://trafficcams.vancouver.ca/richardsHastings.htm", "name": "Richards St and W Hastings St", "geo_local_area": "Downtown"}},{"type": "Feature", "geometry": {"coordinates": [-123.099514, 49.262868], "type": "Point"}, "properties": {"mapid": "TCM134", "url": "https://trafficcams.vancouver.ca/kingswayBroadway.htm", "name": "Kingsway and W Broadway", "geo_local_area": "Mount Pleasant"}},{"type": "Feature", "geometry": {"coordinates": [-123.115565, 49.245194], "type": "Point"}, "properties": {"mapid": "TCM135", "url": "https://trafficcams.vancouver.ca/cambie29.htm", "name": "Cambie St and W 29th Av", "geo_local_area": "South Cambie"}},{"type": "Feature", "geometry": {"coordinates": [-123.115421, 49.282986], "type": "Point"}, "properties": {"mapid": "TCM138", "url": "https://trafficcams.vancouver.ca/seymourDunsmuir.htm", "name": "Seymour St and Dunsmuir St", "geo_local_area": "Downtown"}},{"type": "Feature", "geometry": {"coordinates": [-123.044289, 49.258175], "type": "Point"}, "properties": {"mapid": "TCM140", "url": "https://trafficcams.vancouver.ca/renfrewGrandview.htm", "name": "Renfrew St and Grandview Hwy", "geo_local_area": "Renfrew-Collingwood"}},{"type": "Feature", "geometry": {"coordinates": [-123.124976, 49.2805], "type": "Point"}, "properties": {"mapid": "TCM143", "url": "https://trafficcams.vancouver.ca/hornbyNelson.htm", "name": "Hornby St and Nelson St", "geo_local_area": "Downtown"}},{"type": "Feature", "geometry": {"coordinates": [-123.137996, 49.267903], "type": "Point"}, "properties": {"mapid": "TCM148", "url": "https://trafficcams.vancouver.ca/anderson04.htm", "name": "Anderson St and W 4th Av", "geo_local_area": "Fairview"}},{"type": "Feature", "geometry": {"coordinates": [-123.139589, 49.234332], "type": "Point"}, "properties": {"mapid": "TCM150", "url": "https://trafficcams.vancouver.ca/granville41.htm", "name": "Granville St.and W 41st Av", "geo_local_area": "Shaughnessy"}},{"type": "Feature", "geometry": {"coordinates": [-123.02373, 49.250633], "type": "Point"}, "properties": {"mapid": "TCM152", "url": "https://trafficcams.vancouver.ca/boundary22.htm", "name": "Boundary Road and E 22nd Av", "geo_local_area": "Renfrew-Collingwood"}},{"type": "Feature", "geometry": {"coordinates": [-123.098201, 49.267764], "type": "Point"}, "properties": {"mapid": "TCM166", "url": "https://trafficcams.vancouver.ca/scotia2.htm", "name": "Scotia St and E 2nd Av", "geo_local_area": "Strathcona"}},{"type": "Feature", "geometry": {"coordinates": [-123.142376, 49.28688], "type": "Point"}, "properties": {"mapid": "TCM167", "url": "https://trafficcams.vancouver.ca/denmanBeach.htm", "name": "Denman St and Beach Av", "geo_local_area": "West End"}},{"type": "Feature", "geometry": {"coordinates": [-123.185261, 49.234718], "type": "Point"}, "properties": {"mapid": "TCM168", "url": "https://trafficcams.vancouver.ca/dunbar41.htm", "name": "Dunbar St and W 41st Av", "geo_local_area": "Dunbar-Southlands"}},{"type": "Feature", "geometry": {"coordinates": [-123.128859, 49.276755], "type": "Point"}, "properties": {"mapid": "TCM171", "url": "https://trafficcams.vancouver.ca/howeDrake.htm", "name": "Howe St and Drake St", "geo_local_area": "Downtown"}},{"type": "Feature", "geometry": {"coordinates": [-123.122658, 49.276939], "type": "Point"}, "properties": {"mapid": "TCM174", "url": "https://trafficcams.vancouver.ca/richardsHelmcken.htm", "name": "Richards St and Helmcken St", "geo_local_area": "Downtown"}},{"type": "Feature", "geometry": {"coordinates": [-123.119473, 49.279046], "type": "Point"}, "properties": {"mapid": "TCM179", "url": "https://trafficcams.vancouver.ca/richardsSmithe.htm", "name": "Richards St and Smithe St", "geo_local_area": "Downtown"}},{"type": "Feature", "geometry": {"coordinates": [-123.127496, 49.27374], "type": "Point"}, "properties": {"mapid": "TCM180", "url": "https://trafficcams.vancouver.ca/richardsPacific.htm", "name": "Richards St and Pacific St", "geo_local_area": "Downtown"}},{"type": "Feature", "geometry": {"coordinates": [-123.117144, 49.281859], "type": "Point"}, "properties": {"mapid": "TCM186", "url": "https://trafficcams.vancouver.ca/seymourGeorgia.htm", "name": "Seymour St and W Georgia St", "geo_local_area": "Downtown"}},{"type": "Feature", "geometry": {"coordinates": [-123.126012, 49.281193], "type": "Point"}, "properties": {"mapid": "TCM190", "url": "https://trafficcams.vancouver.ca/burrardnelson.htm", "name": "Burrard St and Nelson St", "geo_local_area": "West End"}}]}